City_ID,City,Lat,Lng,Max Temp,Humidity,Cloudiness,Wind Speed,Country,Date
0,adamstown,-25.066,-130.1015,24.88,87,10,9.99,PN,1706813738
1,isangel,-19.55,169.2667,24.06,88,100,3.6,VU,1706813738
2,tazovsky,67.4667,78.7,-12.25,94,100,7.81,RU,1706813739
3,bodden town,19.2833,-81.25,25.55,62,20,5.66,KY,1706813739
4,ushuaia,-54.8,-68.3,18.81,34,40,7.72,AR,1706813604
5,whitehorse,60.7161,-135.0538,-14.57,55,100,5.14,CA,1706813710
6,grytviken,-54.2811,-36.5092,5.82,69,42,4.56,GS,1706813740
7,stanley,54.868,-1.6985,5.85,81,20,5.14,GB,1706813661
8,coari,-4.085,-63.1414,25.2,95,94,1.91,BR,1706813741
9,bethel,41.3712,-73.414,6.08,74,100,3.6,US,1706813741
10,pikeville,37.4793,-82.5188,13.51,51,0,0.89,US,1706813617
11,margaret river,-33.95,115.0667,17.75,87,3,3.24,AU,1706813742
12,sitka,57.0531,-135.33,1.94,60,100,5.66,US,1706813742
13,yellowknife,62.456,-114.3525,-11.44,100,100,8.23,CA,1706813574
14,cabedelo,-6.9811,-34.8339,31.37,66,30,5.22,BR,1706813742
15,daru,-9.0763,143.2092,25.62,92,100,4.49,PG,1706813743
16,avarua,-21.2078,-159.775,29.03,74,97,2.06,CK,1706813743
17,jayapura,-2.5333,140.7,23.66,89,100,2.55,ID,1706813743
18,palmer,42.1584,-72.3287,5.14,70,100,3.09,US,1706813744
19,ilulissat,69.2167,-51.1,-18.99,78,75,8.23,GL,1706813744
20,tiksi,71.6872,128.8694,-17.99,92,100,2.69,RU,1706813744
21,puerto natales,-51.7236,-72.4875,16.25,44,40,12.86,CL,1706813745
22,port alfred,-33.5906,26.891,22.88,95,70,2.24,ZA,1706813745
23,albany,42.6001,-73.9662,4.1,87,100,0.45,US,1706813745
24,punta arenas,-53.15,-70.9167,17.06,34,20,20.58,CL,1706813573
25,lapithos,35.3375,33.1792,7.16,71,6,0.42,CY,1706813746
26,caleta de carquin,-11.0925,-77.6267,26.14,74,90,4.38,PE,1706813746
27,port-aux-francais,-49.35,70.2167,6.55,84,98,3.33,TF,1706813746
28,suntar,62.1444,117.6319,-28.66,99,100,1.42,RU,1706813747
29,bilibino,68.0546,166.4372,-43.91,98,7,1.73,RU,1706813747
30,holualoa,19.6228,-155.9522,24.88,74,75,2.57,US,1706813747
31,west island,-12.1568,96.8225,26.99,89,100,5.14,CC,1706813747
32,waitangi,-43.9535,-176.5597,16.01,97,100,2.24,NZ,1706813599
33,olonkinbyen,70.9221,-8.7187,-6.92,62,28,6.31,SJ,1706813748
34,blackmans bay,-43.0167,147.3167,13.07,55,54,2.24,AU,1706813748
35,concepcion,-36.827,-73.0498,24.89,50,0,6.69,CL,1706813749
36,timmins,48.4669,-81.3331,-8.1,86,100,5.14,CA,1706813481
37,codrington,-38.2667,141.9667,13.6,77,7,4.31,AU,1706813749
38,novyy urengoy,66.0833,76.6333,-12.82,92,100,8.04,RU,1706813749
39,georgetown,5.4112,100.3354,27.96,82,20,2.06,MY,1706813567
40,edinburgh of the seven seas,-37.0676,-12.3116,18.4,88,93,7.37,SH,1706813598
41,ar rutbah,33.0381,40.2848,6.71,71,78,3.5,IQ,1706813750
42,namsos,64.4662,11.4957,0.95,60,40,9.26,NO,1706813750
43,horta,38.5333,-28.6333,17.8,89,20,3.09,PT,1706813751
44,talnakh,69.4865,88.3972,-16.55,85,100,7.53,RU,1706813751
45,keflavik,64.0049,-22.5624,2.95,100,100,4.12,IS,1706813751
46,bratsk,56.1325,101.6142,-26.73,99,94,1.03,RU,1706813751
47,yangjiang,21.85,111.9667,19.94,93,91,1.49,CN,1706813752
48,iqaluit,63.7506,-68.5145,-31.15,62,75,2.06,CA,1706813752
49,cestos city,5.46,-9.5828,28.06,77,77,3.67,LR,1706813752
50,vila franca do campo,37.7167,-25.4333,18.27,99,28,4.03,PT,1706813753
51,kununurra,-15.7667,128.7333,27.99,94,79,0.0,AU,1706813734
52,dridu,44.7,26.45,3.44,62,100,2.94,RO,1706813753
53,acajutla,13.5928,-89.8275,30.19,47,2,4.31,SV,1706813754
54,pasuquin,18.3328,120.6177,21.97,94,20,1.03,PH,1706813754
55,lihue,21.9789,-159.3672,21.31,84,100,1.54,US,1706813754
56,jamestown,42.097,-79.2353,5.01,93,100,5.66,US,1706813660
57,qaqortoq,60.7167,-46.0333,-12.86,90,72,1.87,GL,1706813463
58,kavaratti,10.5669,72.642,27.45,67,100,5.02,IN,1706813755
59,cole harbour,44.6724,-63.4751,2.2,78,100,2.57,CA,1706813755
60,rio grande,-32.035,-52.0986,31.06,62,0,5.76,BR,1706813755
61,shiqian,27.5225,108.2281,5.2,90,100,1.65,CN,1706813756
62,angaur state,6.906,134.13,27.56,73,91,7.23,PW,1706813756
63,ribeira grande,38.5167,-28.7,18.22,82,20,3.09,PT,1706813756
64,aasiaat,68.7098,-52.8699,-24.87,96,100,1.91,GL,1706813756
65,ta`u,-14.2336,-169.5144,28.64,75,100,3.84,AS,1706813757
66,vorgashor,67.5833,63.95,-5.95,80,100,6.64,RU,1706813757
67,colonia,50.9333,6.95,6.65,78,0,1.54,DE,1706813708
68,dudinka,69.4058,86.1778,-16.32,92,100,11.24,RU,1706813758
69,vidyayevo,69.3191,32.8049,-1.1,93,100,7.77,RU,1706813758
70,tsiombe,-25.3,45.4833,23.52,76,87,7.5,MG,1706813758
71,vitoria da conquista,-14.8661,-40.8394,26.38,53,27,3.25,BR,1706813758
72,haiku-pauwela,20.9219,-156.3051,25.02,84,100,0.0,US,1706813759
73,wailua homesteads,22.0669,-159.378,20.97,85,100,1.54,US,1706813759
74,lazaro cardenas,17.9583,-102.2,28.27,67,100,2.86,MX,1706813759
75,hami,42.8,93.45,-4.46,56,5,1.78,CN,1706813760
76,gagliano del capo,39.8442,18.3695,9.68,66,0,3.09,IT,1706813760
77,salinas,36.6777,-121.6555,15.9,85,100,3.6,US,1706813760
78,invercargill,-46.4,168.35,10.57,95,100,2.17,NZ,1706813760
79,kudat,6.8837,116.8477,26.96,89,100,1.03,MY,1706813761
80,hasaki,35.7333,140.8333,4.05,61,100,10.78,JP,1706813761
81,hawaiian paradise park,19.5933,-154.9731,26.04,70,0,2.57,US,1706813761
82,luderitz,-26.6481,15.1594,20.12,85,34,5.17,NA,1706813761
83,igarka,67.4667,86.5833,-15.53,94,100,9.45,RU,1706813762
84,nago,26.5881,127.9761,16.24,72,100,2.39,JP,1706813762
85,carnarvon,-24.8667,113.6333,24.83,84,65,2.67,AU,1706813762
86,manokwari,-0.8667,134.0833,25.7,83,100,2.67,ID,1706813763
87,hermanus,-34.4187,19.2345,24.33,80,5,6.69,ZA,1706813586
88,kodiak,57.79,-152.4072,-1.27,64,0,6.17,US,1706813764
89,ust-nera,64.5667,143.2,-30.82,100,100,1.47,RU,1706813764
90,clarence town,-32.5833,151.7833,22.7,97,3,1.04,AU,1706813764
91,micheweni,-4.9667,39.8333,27.21,76,100,3.91,TZ,1706813765
92,tshabong,-26.05,22.45,30.18,25,61,5.32,BW,1706813765
93,broome,42.2506,-75.833,4.15,89,100,3.6,US,1706813471
94,cromer,52.9312,1.2989,5.93,75,99,3.58,GB,1706813766
95,petropavlovsk-kamchatsky,53.0452,158.6483,-13.67,86,100,4.0,RU,1706813766
96,ostersund,63.1792,14.6357,-2.99,93,40,12.86,SE,1706813766
97,naama,33.2667,-0.3167,12.63,37,0,3.66,DZ,1706813767
98,mount gambier,-37.8333,140.7667,13.7,89,1,2.47,AU,1706813767
99,faranah,10.0404,-10.7434,30.43,15,98,2.1,GN,1706813767
100,fort st. john,56.2499,-120.8529,1.94,75,75,2.06,CA,1706813768
101,fort wellington,6.4,-57.6,29.14,57,100,4.6,GY,1706813768
102,valparaiso,-33.0393,-71.6273,24.13,66,0,6.69,CL,1706813519
103,udachny,66.4167,112.4,-29.97,100,96,2.12,RU,1706813768
104,rongelap,11.1635,166.8941,26.14,87,100,12.44,MH,1706813769
105,nikolayevsk-on-amure,53.1406,140.73,-20.47,85,100,3.65,RU,1706813769
106,borkum,53.5809,6.6915,6.08,91,79,7.59,DE,1706813769
107,papao,-17.75,-149.55,29.82,75,93,6.32,PF,1706813770
108,wanxian,30.8039,108.3897,7.53,91,100,2.14,CN,1706813770
109,san andres,12.5847,-81.7006,29.01,65,20,6.17,CO,1706813770
110,sault ste. marie,46.5168,-84.3333,4.16,72,100,4.12,CA,1706813731
111,ofunato,39.0717,141.7167,-2.28,58,27,5.1,JP,1706813771
112,okhotsk,59.3833,143.3,-23.04,82,99,3.87,RU,1706813771
113,flying fish cove,-10.4217,105.6791,25.82,94,100,1.03,CX,1706813771
114,ola,59.5833,151.2833,-28.93,89,25,3.8,RU,1706813772
115,port saint john's,-31.6229,29.5448,24.49,82,100,7.31,ZA,1706813772
116,shimoda,34.6667,138.95,5.06,68,95,7.14,JP,1706813772
117,ambon,-3.6954,128.1814,26.08,89,40,0.51,ID,1706813773
118,port elizabeth,-33.918,25.5701,22.4,92,0,6.69,ZA,1706813594
119,cannonvale,-20.2833,148.7,27.66,83,99,5.8,AU,1706813773
120,bredasdorp,-34.5322,20.0403,21.79,91,98,3.5,ZA,1706813774
121,mejit,10.2753,170.8646,26.51,87,58,10.42,MH,1706813774
122,nar'yan-mar,67.6713,53.087,-2.72,93,100,7.6,RU,1706813774
123,mitsamiouli,-11.3847,43.2844,27.55,77,100,2.04,KM,1706813774
124,puerto baquerizo moreno,-0.9,-89.6,27.55,83,75,3.09,EC,1706813775
125,oamaru,-45.0784,170.9801,12.99,89,100,2.82,NZ,1706813775
126,krasnokamsk,58.0802,55.7541,-3.91,94,100,2.19,RU,1706813775
127,nuuk,64.1835,-51.7216,-13.66,78,75,3.6,GL,1706813776
128,new plymouth,-39.0667,174.0833,18.23,76,85,6.31,NZ,1706813637
129,longyearbyen,78.2186,15.6401,-10.09,79,75,3.6,SJ,1706813777
130,caconda,-13.7333,15.0667,16.41,97,100,1.37,AO,1706813777
131,tartu,58.3806,26.7251,1.14,83,20,7.72,EE,1706813777
132,mabaruma,8.2,-59.7833,30.05,58,100,3.28,GY,1706813778
133,bikenibeu village,1.3673,173.1241,27.98,94,40,3.09,KI,1706813778
134,constantia,44.1833,28.65,2.61,57,0,4.11,RO,1706813778
135,saipan,15.1355,145.701,24.39,94,100,6.17,MP,1706813779
136,lhokseumawe,5.1801,97.1507,24.89,88,87,1.37,ID,1706813520
137,college,64.8569,-147.8028,-39.4,46,20,2.57,US,1706813779
138,el bolson,-41.9667,-71.5167,28.04,26,100,3.35,AR,1706813780
139,la'ie,21.6477,-157.9253,23.98,91,97,2.22,US,1706813780
140,thompson,55.7435,-97.8558,-11.91,79,75,2.57,CA,1706813780
141,gadzhiyevo,69.2551,33.3362,-0.94,89,100,9.35,RU,1706813781
142,freetown,8.484,-13.2299,26.84,83,87,4.12,SL,1706813781
143,nouadhibou,20.931,-17.0347,28.99,16,0,1.54,MR,1706813781
144,badger,64.8,-147.5333,-39.45,68,20,2.57,US,1706813782
145,cockburn town,21.4612,-71.1419,23.78,61,12,10.14,TC,1706813782
146,saint-philippe,-21.3585,55.7679,24.77,89,92,7.76,RE,1706813782
147,puerto ayora,-0.7393,-90.3518,29.98,70,100,3.4,EC,1706813783
148,namtsy,62.7161,129.6658,-33.36,99,88,1.98,RU,1706813783
149,peace river,56.2501,-117.286,3.17,80,100,2.06,CA,1706813783
150,capela,-10.5033,-37.0528,29.97,58,28,6.43,BR,1706813784
151,sao lourenco do sul,-31.3653,-51.9783,27.23,55,0,4.07,BR,1706813784
152,jiayuguan,39.8167,98.3,-8.89,56,100,3.44,CN,1706813784
153,constitucion,-35.3333,-72.4167,23.23,58,9,7.9,CL,1706813785
154,denizli,37.8402,29.0698,5.19,59,0,0.72,TR,1706813785
155,bamboo flat,11.7,92.7167,26.44,83,48,3.5,IN,1706813785
156,xiuyan,40.2928,123.2744,-15.6,87,5,2.59,CN,1706813786
157,fukuecho,32.6881,128.8419,11.56,78,100,11.61,JP,1706813786
158,san patricio,28.017,-97.5169,24.05,58,34,5.73,US,1706813786
159,mount pearl,47.5166,-52.7813,-1.2,78,75,7.2,CA,1706813584
160,happy valley-goose bay,53.3168,-60.3315,-15.83,39,20,5.14,CA,1706813787
161,nova olimpia,-14.7972,-57.2881,35.61,38,28,2.0,BR,1706813787
162,las heras,-46.5419,-68.9359,27.96,17,100,12.99,AR,1706813487
163,ribeira brava,32.65,-17.0667,21.18,29,41,4.0,PT,1706813788
164,shubarshi,48.5872,57.1869,-7.38,93,100,4.27,KZ,1706813788
165,ojuelos de jalisco,21.8667,-101.5833,18.02,40,99,5.0,MX,1706813788
166,paphos,34.7667,32.4167,10.88,82,75,2.57,CY,1706813789
167,namibe,-15.1961,12.1522,25.29,78,100,4.75,AO,1706813589
168,hadibu,12.65,54.0333,24.98,74,38,1.69,YE,1706813789
169,zhezqazghan,47.7833,67.7667,-16.26,94,71,4.59,KZ,1706813790
170,st. john's,47.5649,-52.7093,-0.74,78,75,7.2,CA,1706813790
171,chonchi,-42.6128,-73.8092,24.64,49,100,2.74,CL,1706813790
172,hithadhoo,-0.6,73.0833,28.09,74,42,5.37,MV,1706813791
173,wakkanai,45.4094,141.6739,-9.39,81,100,6.26,JP,1706813791
174,punta alta,-38.8759,-62.0736,30.96,51,51,5.41,AR,1706813791
175,sitia,35.2,26.0986,11.66,61,38,11.15,GR,1706813792
176,qamdo,31.1667,97.2333,-10.37,47,80,3.31,CN,1706813792
177,puerto deseado,-47.7503,-65.8938,26.34,30,16,3.73,AR,1706813792
178,pajara,28.3504,-14.1076,19.73,50,46,4.73,ES,1706813792
179,fuerte olimpo,-21.0415,-57.8738,40.65,19,100,1.19,PY,1706813793
180,port lincoln,-34.7333,135.8667,15.68,88,1,3.36,AU,1706813793
181,eirunepe,-6.6603,-69.8736,31.91,56,98,1.64,BR,1706813793
182,bathsheba,13.2167,-59.5167,30.34,70,40,4.63,BB,1706813794
183,vilyuchinsk,52.9306,158.4028,-12.85,95,100,3.14,RU,1706813794
184,stantsiya novyy afon,43.0806,40.8383,6.32,80,81,1.06,GE,1706813794
185,nemuro,43.3236,145.575,-8.43,63,52,8.47,JP,1706813794
186,svetlyy,54.675,20.1347,4.46,75,18,10.49,RU,1706813795
187,taulaga,-11.0553,-171.0883,28.23,80,100,6.49,AS,1706813795
188,kloulklubed,7.0419,134.2556,26.28,74,100,7.21,PW,1706813795
189,khorugh,37.4897,71.553,-14.2,81,100,0.27,TJ,1706813796
190,tartouss,34.889,35.8866,11.32,78,55,1.4,SY,1706813796
191,meadow lake,34.8014,-106.5436,15.32,51,82,3.22,US,1706813796
192,redmond,47.674,-122.1215,12.41,92,100,1.34,US,1706813573
193,tura,25.5198,90.2201,14.5,67,0,1.43,IN,1706813797
194,maxixe,-23.8597,35.3472,25.9,88,20,4.63,MZ,1706813797
195,island harbour,50.724,-1.2758,7.04,84,87,0.45,GB,1706813798
196,bafq,31.6128,55.4107,9.04,38,13,0.21,IR,1706813798
197,las lomitas,-24.7096,-60.593,42.36,15,66,3.12,AR,1706813798
198,iskateley,67.6803,53.1512,-2.77,93,100,7.6,RU,1706813798
199,altoona,40.5187,-78.3947,7.94,68,100,2.24,US,1706813511
200,new norfolk,-42.7826,147.0587,13.72,60,32,6.21,AU,1706813799
201,tumayr,25.7039,45.868,14.58,25,0,5.95,SA,1706813799
202,lethem,3.3803,-59.7968,33.03,52,40,5.14,GY,1706813800
203,aljezur,37.3191,-8.8033,13.54,78,4,0.91,PT,1706813800
204,zeya,53.75,127.2667,-26.95,94,25,1.82,RU,1706813800
205,pandan,14.0453,124.1694,24.43,83,100,4.06,PH,1706813800
206,atafu village,-8.5421,-172.5159,26.38,89,100,6.65,TK,1706813801
207,salinopolis,-0.6136,-47.3561,27.26,87,92,4.85,BR,1706813801
208,prabumulih,-3.45,104.25,23.29,99,100,1.16,ID,1706813801
209,fortuna,40.5982,-124.1573,10.92,94,40,7.2,US,1706813802
210,sao tome,0.3365,6.7273,28.02,78,20,1.54,ST,1706813769
211,general conesa,-40.1,-64.4333,39.31,11,47,4.02,AR,1706813802
212,buchanan,5.8808,-10.0467,27.85,78,100,3.56,LR,1706813803
213,papatowai,-46.5619,169.4708,11.7,93,100,1.77,NZ,1706813803
214,ghanzi,-21.5667,21.7833,26.16,36,52,4.4,BW,1706813803
215,utrik,11.2278,169.8474,25.97,86,82,11.17,MH,1706813804
216,berezovyy,51.6667,135.7,-24.63,87,61,2.03,RU,1706813804
217,korsakov,46.6328,142.7813,-29.09,94,99,1.06,RU,1706813804
218,lata,40.1629,-8.3327,12.08,77,15,1.68,PT,1706813805
219,hailar,49.2,119.7,-37.2,100,44,1.74,CN,1706813805
220,sinabang,2.4803,96.3801,27.3,80,83,1.91,ID,1706813805
221,aykhal,66.0,111.5,-27.21,99,70,2.96,RU,1706813806
222,sisimiut,66.9395,-53.6735,-22.35,99,100,3.15,GL,1706813806
223,hilo,19.7297,-155.09,26.16,70,1,1.34,US,1706813675
224,lebu,-37.6167,-73.65,19.29,73,3,6.45,CL,1706813806
225,roma,43.2128,-75.4557,4.1,85,100,1.54,US,1706813701
226,merizo village,13.2658,144.6691,26.31,89,66,9.42,GU,1706813807
227,bure,10.7,37.0667,15.75,61,10,2.15,ET,1706813807
228,rajpipla,21.8667,73.5,21.24,54,3,1.78,IN,1706813808
229,outjo,-20.1167,16.15,22.64,68,100,3.27,NA,1706813808
230,port mathurin,-19.6833,63.4167,26.05,94,75,13.89,MU,1706813808
231,crane,31.3974,-102.3501,20.24,32,89,3.69,US,1706813808
232,faya-largeau,17.9257,19.1043,16.54,20,0,9.29,TD,1706813809
233,klyuchi,52.2667,79.1667,-7.58,91,100,4.27,RU,1706813809
234,midvagur,62.0511,-7.1939,5.46,100,100,6.17,FO,1706813809
235,mobaye,4.319,21.1786,26.93,31,100,0.11,CF,1706813810
236,kerikeri,-35.2268,173.9474,15.51,92,53,1.62,NZ,1706813810
237,akrehamn,59.2667,5.1833,5.79,87,75,5.14,NO,1706813810
238,tawau,4.2498,117.8871,25.07,94,100,0.89,MY,1706813811
239,villa de soto,-30.8552,-64.9995,35.78,16,0,7.73,AR,1706813811
240,sao felix do xingu,-6.6447,-51.995,27.55,94,100,0.08,BR,1706813653
241,mandalgovi,45.7625,106.2708,-20.34,94,6,3.11,MN,1706813812
242,belel,7.05,14.4333,19.6,23,8,2.59,CM,1706813812
243,beneditinos,-5.45,-42.3667,32.27,51,100,2.07,BR,1706813812
244,tamandare,-8.7597,-35.1047,28.77,70,52,4.81,BR,1706813594
245,tofol,5.3248,163.0078,27.58,82,100,5.86,FM,1706813813
246,smara,26.7384,-11.6719,21.07,15,0,4.99,EH,1706813813
247,klaksvik,62.2266,-6.589,5.51,92,100,8.71,FO,1706813813
248,basoda,23.85,77.9333,17.98,52,2,2.12,IN,1706813814
249,kill devil hills,36.0307,-75.676,12.0,72,0,2.57,US,1706813814
250,quellon,-43.1167,-73.6167,19.13,70,100,3.04,CL,1706813814
251,kourou,5.1552,-52.6478,31.03,60,100,3.57,GF,1706813814
252,deqen,29.9618,90.7188,-5.67,60,96,2.99,CN,1706813815
253,lagoa,39.05,-27.9833,16.09,91,0,4.99,PT,1706813815
254,martaban,16.5314,97.6111,23.56,75,0,1.18,MM,1706813815
255,bumba,2.1833,22.4667,26.94,49,16,1.14,CD,1706813815
256,tarakan,3.3,117.6333,26.46,82,100,2.72,ID,1706813816
257,weno,7.4515,151.8468,25.97,94,75,3.6,FM,1706813816
258,canico,32.6333,-16.85,21.18,81,40,2.57,PT,1706813816
259,mar del plata,-38.0023,-57.5575,27.75,58,75,8.49,AR,1706813816
260,ravar,31.2656,56.8055,8.55,34,93,2.69,IR,1706813817
261,pimentel,-6.8367,-79.9342,30.16,58,75,5.66,PE,1706813817
262,usogorsk,63.4106,48.6872,-4.63,95,100,6.08,RU,1706813817
263,kudahuvadhoo,2.6708,72.8944,27.7,78,97,5.25,MV,1706813818
264,sungai penuh,-2.0833,101.3833,18.54,96,100,0.96,ID,1706813818
265,chernyshevskiy,63.0128,112.4714,-36.12,100,97,0.91,RU,1706813818
266,andalgala,-27.5819,-66.3165,28.85,31,40,6.05,AR,1706813819
267,nema,57.5067,50.5011,-7.63,94,94,4.57,RU,1706813819
268,berdigestyakh,62.0989,126.6992,-33.18,99,98,2.26,RU,1706813819
269,ponta delgada,37.7333,-25.6667,18.44,88,20,5.66,PT,1706813819
270,pak phanang,8.3511,100.202,25.32,82,57,2.18,TH,1706813820
271,madingou,-4.1536,13.55,23.33,90,73,1.01,CG,1706813820
272,masterton,-40.9597,175.6575,17.83,65,37,6.04,NZ,1706813820
273,karagandy,49.8019,73.1021,-7.03,90,100,7.72,KZ,1706813821
274,manaure,11.7751,-72.4445,26.97,74,70,7.25,CO,1706813821
275,isafjordur,66.0755,-23.124,3.02,70,100,1.54,IS,1706813821
276,yibin,28.7667,104.6238,11.52,68,100,0.67,CN,1706813821
277,laguna,38.421,-121.4238,14.63,89,40,3.09,US,1706813822
278,butjadingen,53.5472,8.335,5.68,93,83,6.0,DE,1706813822
279,fonte boa,-2.4959,-66.2662,27.5,93,99,1.25,BR,1706813822
280,yarmouth port,41.702,-70.2495,6.2,78,100,5.36,US,1706813823
281,uzgen,40.7699,73.3007,-1.84,75,86,2.54,KG,1706813823
282,myeik,12.4333,98.6,24.76,82,0,1.74,MM,1706813824
283,yanchep,-31.55,115.6833,26.64,59,0,2.86,AU,1706813824
284,patos de minas,-18.5789,-46.5181,25.48,70,99,3.17,BR,1706813824
285,coquimbo,-29.9533,-71.3436,20.85,77,75,5.14,CL,1706813825
286,old town,50.087,14.4202,6.5,70,0,5.66,CZ,1706813825
287,san antonio de pale,-1.4014,5.6325,28.14,77,92,2.76,GQ,1706813825
288,egilsstadir,65.2653,-14.3948,0.95,64,0,3.6,IS,1706813826
289,newman,37.3138,-121.0208,13.92,88,94,0.89,US,1706813826
290,port-vila,-17.7338,168.3219,23.78,100,20,1.03,VU,1706813826
291,puerto aysen,-45.4,-72.7,23.67,42,46,4.0,CL,1706813826
292,san rafael,-34.6177,-68.3301,38.37,17,2,6.87,AR,1706813827
293,uturoa,-16.7333,-151.4333,27.89,72,90,5.6,PF,1706813827
294,selfoss,63.9331,-20.9971,2.25,96,100,1.51,IS,1706813827
295,colares,38.7992,-9.4469,17.72,75,0,2.24,PT,1706813828
296,xilin hot,43.9667,116.0333,-22.65,88,100,1.93,CN,1706813828
297,benguela,-12.5763,13.4055,26.72,82,100,3.73,AO,1706813828
298,dryden,49.7833,-92.7503,-4.84,80,100,3.09,CA,1706813829
299,badr hunayn,23.7829,38.7905,16.05,43,0,4.21,SA,1706813829
300,hamilton,39.1834,-84.5333,12.57,63,0,5.66,US,1706813345
301,tete,-16.1564,33.5867,30.05,58,40,4.63,MZ,1706813830
302,sala,34.0389,-6.8166,17.02,94,0,0.0,MA,1706813830
303,kindu,-2.95,25.95,23.75,80,99,1.41,CD,1706813830
304,tolanaro,-25.0319,46.9987,25.04,78,75,8.23,MG,1706813831
305,mount isa,-20.7333,139.5,25.87,83,100,3.6,AU,1706813831
306,rundu,-17.9333,19.7667,22.72,65,100,2.02,NA,1706813831
307,westport,41.1415,-73.3579,7.4,71,100,4.12,US,1706813810
308,karratha,-20.7377,116.8463,29.13,59,98,2.59,AU,1706813832
309,remire-montjoly,4.9167,-52.2667,31.02,58,20,4.63,GF,1706813832
310,colon,9.3592,-79.9014,25.55,69,100,6.71,PA,1706813684
311,polyarnyy,69.1989,33.4478,-0.54,86,100,9.63,RU,1706813833
312,talara,-4.5772,-81.2719,29.42,65,75,6.17,PE,1706813793
313,menaka,15.9182,2.4022,24.53,13,97,5.92,ML,1706813833
314,arno,60.1167,18.6333,1.55,73,53,7.12,SE,1706813833
315,sungjibaegam,41.2428,128.7989,-18.5,67,62,1.41,KP,1706813834
316,chanika,-5.4167,38.0167,21.02,99,100,1.4,TZ,1706813834
317,matoury,4.8483,-52.3317,30.98,58,20,4.63,GF,1706813834
318,sorong,-0.8833,131.25,27.02,83,100,1.74,ID,1706813835
319,paita,-5.0892,-81.1144,26.97,70,62,5.21,PE,1706813835
320,inhambane,-23.865,35.3833,25.99,88,20,4.63,MZ,1706813835
321,buka,40.8108,69.1986,0.48,78,100,3.11,UZ,1706813836
322,kavieng,-2.5744,150.7967,27.57,80,100,2.34,PG,1706813836
323,portland,45.5234,-122.6762,14.34,83,49,1.79,US,1706813830
324,quelimane,-17.8786,36.8883,26.97,88,40,2.68,MZ,1706813837
325,peniche,39.3558,-9.3811,15.6,78,9,3.68,PT,1706813837
326,kailua-kona,19.6406,-155.9956,26.39,74,75,2.57,US,1706813585
327,skovorodino,53.9833,123.9167,-31.41,100,86,1.24,RU,1706813837
328,levuka,50.1834,-105.4011,5.85,81,20,6.17,CA,1706813838
329,maktar,35.858,9.2007,5.91,82,24,1.84,TN,1706813838
330,ketchikan,55.3422,-131.6461,10.99,87,100,2.06,US,1706813754
331,candelaria,13.9311,121.4233,21.82,96,57,1.89,PH,1706813838
332,general pico,-35.6566,-63.7568,42.64,12,2,6.92,AR,1706813839
333,geraldton,-28.7667,114.6,27.23,32,0,4.63,AU,1706813839
334,porto novo,6.4965,2.6036,29.9,82,46,3.25,BJ,1706813658
335,san mariano,7.5,126.0,22.17,97,100,0.78,PH,1706813840
336,susuman,62.7833,148.1667,-26.12,100,100,0.45,RU,1706813840
337,san martin,-33.081,-68.4681,36.3,17,6,8.6,AR,1706813840
338,toliara,-23.35,43.6667,27.83,69,81,4.61,MG,1706813841
339,tidjikja,18.5564,-11.4271,24.49,12,100,4.57,MR,1706813841
340,bonny,4.4522,7.1681,27.85,81,100,5.12,NG,1706813657
341,worland,44.0169,-107.9554,9.82,70,0,1.54,US,1706813842
342,shahrak,34.1074,64.3052,-6.25,58,24,1.72,AF,1706813842
343,manado,1.487,124.8455,24.43,100,20,0.51,ID,1706813842
344,urengoy,65.9667,78.3667,-13.45,93,100,7.67,RU,1706813843
345,chaiyaphum,15.75,102.0,28.22,58,5,2.48,TH,1706813843
346,afaahiti,-17.75,-149.2833,28.93,76,84,7.61,PF,1706813843
347,gaspe,48.8334,-64.4819,-6.05,93,100,4.12,CA,1706813611
348,reggane,26.7158,0.1714,18.84,18,0,3.67,DZ,1706813844
349,katabu,-4.9333,122.5167,24.88,93,95,0.85,ID,1706813844
350,salekhard,66.53,66.6019,-14.05,96,100,3.73,RU,1706813844
351,jurilovca,44.7667,28.8667,3.05,56,0,3.78,RO,1706813845
352,rodolfo sanchez taboada,31.7167,-116.5667,12.83,80,100,5.81,MX,1706813845
353,cabo san lucas,22.8909,-109.9124,29.23,73,0,0.89,MX,1706813764
354,lorengau,-2.0226,147.2712,27.53,80,64,3.09,PG,1706813846
355,cangas del narcea,43.1833,-6.55,11.79,97,60,1.11,ES,1706813846
356,anadyr,64.75,177.4833,-17.72,85,100,10.0,RU,1706813846
357,yuzhno-kurilsk,44.0306,145.8556,-8.12,64,100,11.4,RU,1706813846
358,koundara,12.4833,-13.3,33.14,12,100,2.57,GN,1706813847
359,dunda,-8.1167,34.25,18.02,96,99,0.59,TZ,1706813847
360,turtas,58.9417,69.1325,-23.03,100,100,1.55,RU,1706813847
361,borba,-4.3878,-59.5939,24.34,98,100,1.59,BR,1706813848
362,santa ana de yacuma,-13.75,-65.4333,32.97,66,75,2.57,BO,1706813848
363,pagar alam,-4.0167,103.2667,21.14,99,100,0.9,ID,1706813848
364,nova sintra,14.8667,-24.7167,21.6,68,98,3.81,CV,1706813849
365,grand falls-windsor,48.9332,-55.6649,-3.61,89,100,0.45,CA,1706813849
366,ibipeba,-11.6408,-42.0111,31.56,35,100,4.75,BR,1706813849
367,chibougamau,49.9168,-74.3659,-3.21,93,100,4.12,CA,1706813850
368,fale old settlement,-9.3852,-171.2468,27.79,82,99,7.83,TK,1706813850
369,hammerfest,70.6634,23.6821,-1.75,93,100,12.86,NO,1706813850
370,filey,54.21,-0.2892,7.1,81,100,1.79,GB,1706813850
371,kaset sombun,16.2805,101.9542,24.5,62,3,1.54,TH,1706813851
372,chippewa falls,44.9369,-91.3929,9.1,70,0,3.6,US,1706813851
373,okha,53.5739,142.9478,-20.94,89,100,8.71,RU,1706813609
374,kysucke nove mesto,49.3,18.7833,2.72,97,100,1.03,SK,1706813852
375,posto fiscal rolim de moura,-13.0833,-62.2667,31.95,61,100,0.68,BR,1706813852
376,zalegoshch',52.9008,36.8869,0.16,93,100,5.84,RU,1706813852
377,laiya,13.675,121.3903,23.44,89,40,3.54,PH,1706813853
378,barra do garcas,-15.89,-52.2567,38.32,30,75,1.54,BR,1706813853
379,magistral'nyy,56.1725,107.4458,-29.24,100,57,0.78,RU,1706813853
380,mocorito,25.4833,-107.9167,27.34,25,0,1.83,MX,1706813854
381,mareeba,-17.0,145.4333,24.69,92,86,1.06,AU,1706813854
382,tuni,17.35,82.55,20.9,87,100,1.07,IN,1706813854
383,vadso,70.0744,29.7487,0.09,93,40,6.17,NO,1706813855
384,pacific grove,36.6177,-121.9166,14.38,88,75,5.36,US,1706813855
385,spring creek,40.7266,-115.5859,8.73,57,100,5.81,US,1706813855
386,kapa'a,22.0752,-159.319,21.72,84,100,1.54,US,1706813855
387,kingston,17.997,-76.7936,30.09,59,20,2.57,JM,1706813312
388,fuyang,32.9,115.8167,-3.48,95,100,3.83,CN,1706813856
389,iranshahr,27.2025,60.6848,18.19,55,0,3.09,IR,1706813856
390,kuching,1.55,110.3333,27.23,94,20,1.34,MY,1706813634
391,praya,14.9215,-23.5087,28.3,36,0,7.72,CV,1706813857
392,fada,9.5667,8.3,25.7,20,13,3.4,NG,1706813857
393,regina,50.4501,-104.6178,5.02,73,20,6.71,CA,1706813548
394,kamaishi,39.2667,141.8833,-2.63,52,18,1.93,JP,1706813858
395,lesnoy,57.6198,63.0784,-15.47,100,100,2.0,RU,1706813858
396,shiguai,40.7058,110.2856,-11.84,83,33,1.96,CN,1706813858
397,olyokminsk,60.3736,120.4264,-26.46,100,100,1.31,RU,1706813859
398,ilave,-16.0833,-69.6667,16.24,42,10,5.5,PE,1706813859
399,syktyvkar,61.6764,50.8099,-5.05,85,100,7.15,RU,1706813859
400,lyubim,58.3625,40.6843,-0.04,92,100,3.24,RU,1706813860
401,heringen,50.888,10.0072,4.54,76,99,2.42,DE,1706813860
402,orkney,-26.9802,26.6727,23.14,35,12,0.36,ZA,1706813860
403,vilyuysk,63.7553,121.6247,-32.78,100,100,1.79,RU,1706813861
404,saint-joseph,-21.3667,55.6167,24.21,88,73,7.89,RE,1706813861
405,touros,-5.1989,-35.4608,29.29,61,6,6.0,BR,1706813862
406,tot'ma,59.9747,42.7642,-0.51,97,100,3.9,RU,1706813862
407,mukalla,14.5425,49.1242,23.75,76,18,0.48,YE,1706813863
408,east london,-33.0153,27.9116,24.52,88,40,4.63,ZA,1706813863
409,forster,-32.1667,152.5167,20.6,88,0,1.46,AU,1706813863
410,manfalut,27.3104,30.97,12.14,49,6,3.43,EG,1706813863
411,ndikinimeki,4.7667,10.8333,22.93,56,23,1.86,CM,1706813864
412,kralendijk,12.15,-68.2667,29.99,70,75,6.69,BQ,1706813645
413,naze,28.3667,129.4833,19.51,88,93,4.24,JP,1706813864
414,lompoc,34.6391,-120.4579,17.1,83,75,4.12,US,1706813864
415,tamanrasset,22.785,5.5228,15.95,11,0,2.57,DZ,1706813865
416,lluta,-16.0147,-72.0142,16.45,58,100,5.03,PE,1706813865
417,albunol,36.792,-3.205,12.6,83,43,1.09,ES,1706813865
418,forio,40.7342,13.8646,13.01,80,100,2.68,IT,1706813865
419,tarauaca,-8.1614,-70.7656,29.41,66,100,0.93,BR,1706813866
420,pisco,-13.7,-76.2167,28.03,61,0,6.69,PE,1706813660
421,akureyri,65.6835,-18.0878,3.96,65,40,10.29,IS,1706813866
422,limuru,-1.1,36.65,17.85,79,100,4.02,KE,1706813867
423,ad-damazin,11.7891,34.3592,25.24,16,5,6.06,SD,1706813867
424,mil'kovo,55.6078,37.7956,1.3,83,100,4.73,RU,1706813867
425,la ronge,55.1001,-105.2842,2.14,69,40,5.66,CA,1706813868
426,pueblo nuevo,23.3833,-105.3833,20.31,29,0,3.6,MX,1706813868
427,krasnoslobodsk,48.7072,44.5714,0.9,86,75,8.0,RU,1706813868
428,vytegra,61.0064,36.4481,0.2,98,97,3.58,RU,1706813868
429,saint croix,17.7397,-64.7388,28.25,71,20,4.12,VI,1706813869
430,walvis bay,-22.9575,14.5053,22.53,73,28,0.51,NA,1706813869
431,ghat,24.9647,10.1728,12.43,28,0,3.34,LY,1706813869
432,saint-tropez,43.2693,6.6398,11.9,86,97,4.55,FR,1706813576
433,huillapima,-28.7253,-65.9787,37.53,21,15,10.9,AR,1706813870
434,priob'ye,62.5206,65.5964,-14.43,98,50,4.29,RU,1706813870
435,praia da vitoria,38.7333,-27.0667,18.2,88,75,3.91,PT,1706813870
436,riberalta,-10.9833,-66.1,30.11,70,75,2.57,BO,1706813871
437,baharly,38.4362,57.4316,3.72,65,7,3.97,TM,1706813871
438,humaita,-7.5061,-63.0208,24.21,98,100,1.05,BR,1706813871
439,alice springs,-23.7,133.8833,22.34,21,0,3.6,AU,1706813725
440,zanjan,36.6736,48.4787,-2.97,82,94,3.16,IR,1706813872
441,vanino,49.0869,140.2543,-20.6,80,27,2.71,RU,1706813872
442,khandyga,62.6667,135.6,-41.56,100,95,1.08,RU,1706813873
443,hinatuan,8.3722,126.3342,24.55,89,100,0.68,PH,1706813873
444,enewetak,11.3474,162.3373,26.15,83,100,12.53,MH,1706813873
445,louis trichardt,-23.0439,29.9032,18.5,60,0,2.11,ZA,1706813874
446,bodaybo,57.8506,114.1933,-26.11,97,100,0.44,RU,1706813874
447,xiva,41.3783,60.3639,-5.01,61,84,2.3,UZ,1706813874
448,tobelo,1.7284,128.0095,26.56,86,100,0.42,ID,1706813874
449,gunsan,35.9786,126.7114,1.94,75,40,2.57,KR,1706813875
450,tripoli,32.8752,13.1875,13.41,62,0,2.14,LY,1706813677
451,rosales,15.8944,120.6328,22.69,85,20,1.4,PH,1706813875
452,diboll,31.1871,-94.781,22.15,49,0,2.06,US,1706813876
453,ancud,-41.8697,-73.8203,18.59,80,100,3.45,CL,1706813876
454,mersa matruh,31.3525,27.2453,12.11,82,40,5.14,EG,1706813876
455,abashiri,44.0213,144.2697,-11.83,88,100,1.4,JP,1706813876
456,am timan,11.0297,20.2827,27.54,17,100,2.77,TD,1706813877
457,rabigh,22.7986,39.0349,19.33,48,1,6.13,SA,1706813877
458,ubatuba,-23.4339,-45.0711,26.66,82,53,2.81,BR,1706813878
459,hailey,43.5196,-114.3153,6.29,78,100,3.09,US,1706813878
460,bandarbeyla,9.4942,50.8122,25.31,74,50,3.57,SO,1706813878
461,dobroye,52.8678,39.8109,0.98,90,100,5.41,RU,1706813878
462,puerto madryn,-42.7692,-65.0385,29.52,30,80,5.75,AR,1706813656
463,hibbing,47.4272,-92.9377,5.64,70,75,3.6,US,1706813691
464,lobujya,27.95,86.8167,-19.07,89,75,1.32,NP,1706813879
465,tamala,52.541,43.2515,-0.71,98,100,4.87,RU,1706813879
466,ak'ordat,15.5486,37.8867,23.21,45,43,2.88,ER,1706813880
467,miyaly,48.8844,53.7836,-4.19,95,100,6.43,KZ,1706813880
468,tahoua,14.8888,5.2692,24.99,14,5,5.14,NE,1706813880
469,fort bragg,35.139,-79.006,14.39,54,0,3.6,US,1706813606
470,zliten,32.4674,14.5687,13.75,60,0,3.62,LY,1706813881
471,sao jose da coroa grande,-8.8978,-35.1478,28.66,71,45,5.07,BR,1706813881
472,el matama,16.7095,33.3565,18.63,19,7,7.66,SD,1706813881
473,mirto,38.0847,14.7515,10.51,73,1,1.23,IT,1706813881
474,chonglong,29.7806,104.8522,7.78,84,77,1.99,CN,1706813882
475,lerwick,60.1545,-1.1494,7.0,91,100,9.87,GB,1706813882
476,oundle,52.4809,-0.4673,6.31,81,100,4.12,GB,1706813882
477,san isidro de curuguaty,-24.5167,-55.7,39.63,18,44,1.52,PY,1706813883
478,tangalle,6.024,80.7911,23.09,89,61,2.05,LK,1706813883
479,arica,-18.475,-70.3042,29.75,61,0,7.2,CL,1706813883
480,kruisfontein,-34.0033,24.7314,20.68,92,50,3.05,ZA,1706813884
481,haimen,23.1935,116.6142,19.94,92,94,2.06,CN,1706813884
482,mathba,22.2855,89.9629,18.79,81,0,1.77,BD,1706813884
483,wau,7.7029,27.9953,26.15,17,95,2.28,SS,1706813884
484,sokhumi,43.0033,41.0153,5.78,82,66,1.13,GE,1706813885
485,burang,30.25,81.1667,-18.86,97,52,2.1,CN,1706813885
486,boende,-0.2167,20.8667,27.42,51,78,0.53,CD,1706813885
487,cooper's town,26.8667,-77.5167,20.27,56,43,6.5,BS,1706813886
488,kapuskasing,49.4169,-82.4331,-9.95,79,100,6.17,CA,1706813886
489,mhamid,29.82,-5.72,15.08,23,26,3.91,MA,1706813886
490,mus,39.0,41.75,-14.69,92,56,2.54,TR,1706813886
491,garhi khairo,28.0606,67.9803,15.88,11,4,0.35,PK,1706813887
492,basco,20.4487,121.9702,23.61,83,63,7.47,PH,1706813887
493,bedford,52.1346,-0.4663,6.3,80,0,4.12,GB,1706813887
494,villa bruzual,9.3328,-69.1208,35.03,36,100,0.83,VE,1706813888
495,phillip island,-38.4835,145.231,16.93,77,1,9.63,AU,1706813888
496,paidha,2.4167,30.9855,19.96,50,100,1.84,UG,1706813888
497,nieuw amsterdam,5.8833,-55.0833,33.09,48,40,3.09,SR,1706813889
498,bac lieu,9.285,105.7244,24.28,88,21,3.45,VN,1706813889
499,puerto ayacucho,5.6639,-67.6236,37.31,35,100,2.37,VE,1706813758
500,sao joao da barra,-21.6403,-41.0511,33.05,78,100,4.5,BR,1706813889
501,crookston,47.7741,-96.6081,4.06,81,0,0.0,US,1706813890
502,coahuayana de hidalgo,18.7,-103.6583,31.04,50,7,3.1,MX,1706813890
503,hinthada,17.6333,95.4667,17.61,40,0,1.95,MM,1706813890
504,sungailiat,-1.85,106.1333,25.74,90,100,3.25,ID,1706813679
505,islamkot,24.6997,70.177,20.1,60,92,3.45,PK,1706813891
506,huarmey,-10.0681,-78.1522,26.84,72,100,4.83,PE,1706813891
507,t'ongch'on-up,38.9539,127.8917,-1.35,95,100,3.23,KP,1706813891
508,villa gesell,-37.2639,-56.973,25.8,66,88,6.33,AR,1706813892
509,bangassou,4.7413,22.8184,24.54,33,8,1.32,CF,1706813892
510,tralee,52.2704,-9.7026,8.92,97,100,3.14,IE,1706813892
511,ilhabela,-23.7781,-45.3581,26.57,79,93,2.71,BR,1706813598
512,sterling,39.0062,-77.4286,12.95,54,20,4.63,US,1706813893
513,shima,24.4478,117.8111,19.01,94,14,0.89,CN,1706813893
514,richards bay,-28.783,32.0377,22.98,84,5,2.92,ZA,1706813894
515,arauca,7.0847,-70.7591,34.98,49,20,2.57,CO,1706813894
516,chokwe,-24.5333,32.9833,24.2,77,0,4.32,MZ,1706813865
517,maceio,-9.6658,-35.7353,30.69,66,75,6.69,BR,1706813894
518,poronaysk,49.2167,143.1167,-22.33,93,98,1.86,RU,1706813895
519,ambovombe,-25.1667,46.0833,23.53,78,100,8.32,MG,1706813895
520,tizimin,21.15,-88.15,28.61,37,9,2.43,MX,1706813895
521,mokhsogollokh,61.4681,128.9203,-30.99,97,32,2.64,RU,1706813896
522,malango,-2.9627,119.9001,19.82,96,100,1.24,ID,1706813896
523,tuxtla chico,14.95,-92.1667,30.75,51,55,3.92,MX,1706813896
524,ciney,50.2945,5.1002,5.43,84,100,1.64,BE,1706813897
525,torghay,49.6339,63.4981,-18.82,99,18,2.98,KZ,1706813897
526,kokopo,-4.352,152.2633,25.55,84,90,2.71,PG,1706813897
527,port augusta,-32.5,137.7667,19.32,65,0,4.74,AU,1706813898
528,villa de cos,23.2833,-102.35,21.43,24,6,4.39,MX,1706813898
529,bima,-8.4667,118.7167,24.9,93,92,0.78,ID,1706813898
530,pontianak,-0.0333,109.3333,23.99,100,40,1.54,ID,1706813898
531,koh kong,11.6175,102.9806,24.61,89,20,1.52,KH,1706813899
532,nova vicosa,-17.8919,-39.3719,28.54,61,48,5.89,BR,1706813899
533,stornoway,58.2093,-6.3865,10.77,94,75,10.29,GB,1706813899
534,es castell,39.8795,4.2854,12.38,87,20,3.09,ES,1706813900
535,i-n-salah,27.1935,2.4607,17.48,18,0,7.43,DZ,1706813900
536,howard springs,-12.497,131.047,27.95,94,100,4.06,AU,1706813900
537,zhangjiakou shi xuanhua qu,40.6103,115.0447,-9.21,78,26,0.99,CN,1706813900
538,pankrushikha,53.8319,80.3406,-10.7,96,100,3.62,RU,1706813901
539,ikovka,55.6089,64.9375,-17.75,100,99,1.47,RU,1706813901
540,la junta,37.985,-103.5438,16.21,28,0,2.57,US,1706813901
541,bowen,-20.0167,148.2333,25.27,89,98,3.83,AU,1706813902
542,el porvenir,13.7617,-87.3458,26.63,30,71,0.95,HN,1706813902
543,solleftea,63.1667,17.2667,-0.08,74,30,5.48,SE,1706813902
544,uyskoye,54.3775,60.0047,-19.71,100,100,1.31,RU,1706813903
545,dwarka,22.2394,68.9678,22.73,82,5,3.88,IN,1706813903
546,hongseong,36.6009,126.665,0.47,79,99,1.41,KR,1706813903
547,arraial do cabo,-22.9661,-42.0278,28.98,74,75,4.12,BR,1706813904
548,bordusani,44.4833,27.9,2.74,58,0,3.39,RO,1706813904
